{"results": [{"address_components": [{"long_name": "10", "short_name": "10", "types": ["street_number"]}, {"long_name": "45A Street", "short_name": "45A St", "types": ["route"]}, {"long_name": "\u0628\u0631 \u062f\u0628\u064a", "short_name": "\u0628\u0631 \u062f\u0628\u064a", "types": ["political", "sublocality", "sublocality_level_1"]}, {"long_name": "\u062f\u0628\u064a", "short_name": "\u062f\u0628\u064a", "types": ["locality", "political"]}, {"long_name": "\u062f\u0628\u064a", "short_name": "\u062f\u0628\u064a", "types": ["administrative_area_level_1", "political"]}, {"long_name": "United Arab Emirates", "short_name": "AE", "types": ["country", "political"]}], "formatted_address": "10 45A St - \u062f\u0628\u064a - United Arab Emirates", "geometry": {"location": {"lat": 25.2598995, "lng": 55.28945330000001}, "location_type": "ROOFTOP", "viewport": {"northeast": {"lat": 25.2612484802915, "lng": 55.29080228029151}, "southwest": {"lat": 25.2585505197085, "lng": 55.28810431970851}}}, "place_id": "ChIJ04wzVRRDXz4Rm6znJM01CaU", "plus_code": {"compound_code": "775Q+XQ Dubai - United Arab Emirates", "global_code": "7HQQ775Q+XQ"}, "types": ["establishment", "point_of_interest"]}, {"address_components": [{"long_name": "Dubai-Hatta Road (E 44 Road)", "short_name": "Dubai-Hatta Road (E 44 Road)", "types": ["route"]}, {"long_name": "International City", "short_name": "International City", "types": ["political", "sublocality", "sublocality_level_1"]}, {"long_name": "Dubai", "short_name": "Dubai", "types": ["locality", "political"]}, {"long_name": "Dubai", "short_name": "Dubai", "types": ["administrative_area_level_1", "political"]}, {"long_name": "United Arab Emirates", "short_name": "AE", "types": ["country", "political"]}], "formatted_address": "Dubai-Hatta Road (E 44 Road) - Dubai - United Arab Emirates", "geometry": {"location": {"lat": 25.17456, "lng": 55.413192}, "location_type": "GEOMETRIC_CENTER", "viewport": {"northeast": {"lat": 25.1759089802915, "lng": 55.41454098029149}, "southwest": {"lat": 25.1732110197085, "lng": 55.4118430197085}}}, "place_id": "ChIJZXwccDdhXz4R8qkbY_nb1YE", "types": ["establishment", "point_of_interest"]}], "status": "OK"}