{"results": [{"address_components": [{"long_name": "Cancer Hospital", "short_name": "Cancer Hospital", "types": ["neighborhood", "political"]}, {"long_name": "Thakur Pukur", "short_name": "Thakur Pukur", "types": ["political", "sublocality", "sublocality_level_1"]}, {"long_name": "Kolkata", "short_name": "Kolkata", "types": ["locality", "political"]}, {"long_name": "South 24 Parganas", "short_name": "South 24 Parganas", "types": ["administrative_area_level_2", "political"]}, {"long_name": "West Bengal", "short_name": "WB", "types": ["administrative_area_level_1", "political"]}, {"long_name": "India", "short_name": "IN", "types": ["country", "political"]}], "formatted_address": "Cancer Hospital, Thakur Pukur, Kolkata, West Bengal, India", "geometry": {"bounds": {"northeast": {"lat": 22.4594747, "lng": 88.3188768}, "southwest": {"lat": 22.4587265, "lng": 88.3170061}}, "location": {"lat": 22.4589771, "lng": 88.31740119999999}, "location_type": "APPROXIMATE", "viewport": {"northeast": {"lat": 22.4604495802915, "lng": 88.3192904302915}, "southwest": {"lat": 22.4577516197085, "lng": 88.31659246970848}}}, "place_id": "ChIJn0qjioR6AjoRN_IPYtcD8m8", "types": ["neighborhood", "political"]}], "status": "OK"}