{"results": [{"address_components": [{"long_name": "Laxmi Nagar", "short_name": "Laxmi Nagar", "types": ["neighborhood", "political"]}, {"long_name": "Block S1", "short_name": "Block S1", "types": ["political", "sublocality", "sublocality_level_3"]}, {"long_name": "Nanakpura", "short_name": "Nanakpura", "types": ["political", "sublocality", "sublocality_level_2"]}, {"long_name": "Shakarpur", "short_name": "Shakarpur", "types": ["political", "sublocality", "sublocality_level_1"]}, {"long_name": "New Delhi", "short_name": "New Delhi", "types": ["locality", "political"]}, {"long_name": "East Delhi", "short_name": "East Delhi", "types": ["administrative_area_level_2", "political"]}, {"long_name": "Delhi", "short_name": "DL", "types": ["administrative_area_level_1", "political"]}, {"long_name": "India", "short_name": "IN", "types": ["country", "political"]}, {"long_name": "110092", "short_name": "110092", "types": ["postal_code"]}], "formatted_address": "Laxmi Nagar, Block S1, Nanakpura, Shakarpur, New Delhi, Delhi 110092, India", "geometry": {"bounds": {"northeast": {"lat": 28.628037, "lng": 77.27903359999999}, "southwest": {"lat": 28.6270614, "lng": 77.27794469999999}}, "location": {"lat": 28.6275609, "lng": 77.2784081}, "location_type": "APPROXIMATE", "viewport": {"northeast": {"lat": 28.6288981802915, "lng": 77.2798381302915}, "southwest": {"lat": 28.6262002197085, "lng": 77.27714016970849}}}, "partial_match": true, "place_id": "ChIJ_6e2GVPjDDkRJ9U6QoDKfRI", "types": ["neighborhood", "political"]}, {"address_components": [{"long_name": "Kuwait", "short_name": "KW", "types": ["country", "political"]}], "formatted_address": "Kuwait", "geometry": {"bounds": {"northeast": {"lat": 30.1036993, "lng": 48.5184}, "southwest": {"lat": 28.5244463, "lng": 46.55303989999999}}, "location": {"lat": 29.31166, "lng": 47.481766}, "location_type": "APPROXIMATE", "viewport": {"northeast": {"lat": 30.1036993, "lng": 48.5184}, "southwest": {"lat": 28.5244463, "lng": 46.55303989999999}}}, "partial_match": true, "place_id": "ChIJoVHqvj82xT8R0u3Yks1rcnQ", "types": ["country", "political"]}], "status": "OK"}