{"results": [{"address_components": [{"long_name": "Khed", "short_name": "Khed", "types": ["locality", "political"]}, {"long_name": "Pune", "short_name": "Pune", "types": ["administrative_area_level_2", "political"]}, {"long_name": "Maharashtra", "short_name": "MH", "types": ["administrative_area_level_1", "political"]}, {"long_name": "India", "short_name": "IN", "types": ["country", "political"]}, {"long_name": "410501", "short_name": "410501", "types": ["postal_code"]}], "formatted_address": "Plot No. A43, Phase-II, MIDC Chakan, Village Sawardari, Khed, Maharashtra 410501, India", "geometry": {"location": {"lat": 18.763865, "lng": 73.7744599}, "location_type": "GEOMETRIC_CENTER", "viewport": {"northeast": {"lat": 18.7652139802915, "lng": 73.7758088802915}, "southwest": {"lat": 18.7625160197085, "lng": 73.77311091970849}}}, "place_id": "ChIJRU39vxe0wjsRRM8mLEorph8", "plus_code": {"compound_code": "QQ7F+GQ Sawardari, Maharashtra, India", "global_code": "7JCMQQ7F+GQ"}, "types": ["establishment", "point_of_interest"]}, {"address_components": [{"long_name": "Pune", "short_name": "Pune", "types": ["locality", "political"]}, {"long_name": "Maharashtra", "short_name": "MH", "types": ["administrative_area_level_1", "political"]}, {"long_name": "India", "short_name": "IN", "types": ["country", "political"]}, {"long_name": "411005", "short_name": "411005", "types": ["postal_code"]}], "formatted_address": "101, MAYFAIR TOWER-2, NEAR BMW SHOWROOM, WAKDEWADI, Pune, Maharashtra 411005, India", "geometry": {"location": {"lat": 18.5367077, "lng": 73.85116889999999}, "location_type": "GEOMETRIC_CENTER", "viewport": {"northeast": {"lat": 18.5380566802915, "lng": 73.8525178802915}, "southwest": {"lat": 18.5353587197085, "lng": 73.84981991970848}}}, "place_id": "ChIJ2wypKD20wjsR7ZMZUXGa6Aw", "plus_code": {"compound_code": "GVP2+MF Pune, Maharashtra, India", "global_code": "7JCMGVP2+MF"}, "types": ["establishment", "point_of_interest"]}], "status": "OK"}