{"results": [{"address_components": [{"long_name": "Riyadh", "short_name": "Riyadh", "types": ["locality", "political"]}, {"long_name": "Saudi Arabia", "short_name": "SA", "types": ["country", "political"]}, {"long_name": "11942", "short_name": "11942", "types": ["postal_code_suffix"]}], "formatted_address": "Oasis Mall Alkharj, Riyadh 11942, Saudi Arabia", "geometry": {"location": {"lat": 24.1662356, "lng": 47.3401764}, "location_type": "GEOMETRIC_CENTER", "viewport": {"northeast": {"lat": 24.16758458029151, "lng": 47.34152538029151}, "southwest": {"lat": 24.1648866197085, "lng": 47.33882741970851}}}, "place_id": "ChIJI-PklPpOJT4RT7fNL9RiWHE", "plus_code": {"compound_code": "588R+F3 Al Kharj Saudi Arabia", "global_code": "7HP9588R+F3"}, "types": ["establishment", "point_of_interest", "shoe_store", "store"]}, {"address_components": [{"long_name": "11942", "short_name": "11942", "types": ["street_number"]}, {"long_name": "King Salman Bin Abdulaziz Road", "short_name": "King Salman Bin Abdulaziz Rd", "types": ["route"]}, {"long_name": "An Nahdah", "short_name": "An Nahdah", "types": ["political", "sublocality", "sublocality_level_1"]}, {"long_name": "Al Kharj", "short_name": "Al Kharj", "types": ["locality", "political"]}, {"long_name": "Riyadh Province", "short_name": "Riyadh Province", "types": ["administrative_area_level_1", "political"]}, {"long_name": "Saudi Arabia", "short_name": "SA", "types": ["country", "political"]}, {"long_name": "11942", "short_name": "11942", "types": ["postal_code_suffix"]}], "formatted_address": "11942 King Salman Bin Abdulaziz Rd, An Nahdah, Al Kharj 16439\u00a011942, Saudi Arabia", "geometry": {"location": {"lat": 24.1484834, "lng": 47.3389298}, "location_type": "ROOFTOP", "viewport": {"northeast": {"lat": 24.1498323802915, "lng": 47.3402787802915}, "southwest": {"lat": 24.1471344197085, "lng": 47.3375808197085}}}, "place_id": "ChIJk0twkNlOJT4RgyJ1NqRu-WE", "plus_code": {"compound_code": "48XQ+9H Al Kharj Saudi Arabia", "global_code": "7HP948XQ+9H"}, "types": ["establishment", "lodging", "point_of_interest"]}], "status": "OK"}